[{"id":"1597139242621","title":"Ferien auf Alter: DJ Colourblind - Feelgood Melodic Dancehall-House Vibes","dances":"Dancehall, House","startDate":"2020-08-14","city":"Mannheim","countryCode":"DE","street":"","housenumber":"","startTime":"","lat":49.4891,"lon":8.46694,"link":"https://www.facebook.com/events/eventId/280944546572770"},{"id":"1597135244365","title":"Tanzschuhe Verkaufausstellung","dances":"Salsa","startDate":"2020-09-18","city":"Speyer","countryCode":"DE","street":"","housenumber":"","startTime":"","lat":49.32083,"lon":8.43111,"link":"https://www.facebook.com/events/eventId/401667010747604"},{"id":"1597714608797","title":"Faszienketten & Emotionen lösen - mit Pascal Beaumart","dances":"Contact","startDate":"2020-09-04","city":"Mannheim","countryCode":"DE","lat":49.4891,"lon":8.46694,"street":"","housenumber":"","startTime":"","link":"https://www.facebook.com/events/eventId/573704273450622"},{"id":"1597150110808","title":"Cuban Summer Dance  \"PEDRO\"  Sa 22.- Sa 29. August","dances":"Salsa, Timba","startDate":"2020-08-22","city":"Freiburg","countryCode":"DE","lat":47.9959,"lon":7.85222,"street":"","housenumber":"","startTime":"","link":"https://www.facebook.com/events/eventId/968777713549853"},{"id":"1597914230866","title":"Kostenloser Zouk Workshop in Basel","imageName":"Dancing-Zouk-in-Switzerland-Basel-on-2020-09-17-at-7:45pm-1597899600159.jpg","dances":"Zouk","countryCode":"CH","city":"Basel","street":"Rheinländerstrasse 3","housenumber":"3","startDate":"2020-09-17","startTime":"2020-09-17","lat":47.55839,"lon":7.57327},{"id":"1597960850373","title":"Kostenloser Zouk Workshop in Basel","imageName":"dancing-Zouk-in-basel-CH-on-2020-09-17.jpg","dances":"Zouk","countryCode":"CH","city":"basel","street":"Rheinländerstrasse 3","housenumber":"3","startDate":"2020-09-17","startTime":"2020-09-17","link":"DancePlanner","lat":47.55839,"lon":7.57327},{"id":"1597914230866","title":"Kostenloser Zouk Workshop in Basel","imageName":"Dancing-Zouk-in-Switzerland-Basel-on-2020-09-17-at-7:45pm-1597899600159.jpg","dances":"Zouk","countryCode":"CH","city":"Basel","street":"Rheinländerstrasse 3","housenumber":"3","startDate":"2020-09-17","startTime":"2020-09-17","lat":47.55839,"lon":7.57327},{"id":"1597914230866","title":"Kostenloser Zouk Workshop in Basel","imageName":"Dancing-Zouk-in-Switzerland-Basel-on-2020-09-17-at-7:45pm-1597899600159.jpg","dances":"Zouk","countryCode":"CH","city":"Basel","street":"Rheinländerstrasse 3","housenumber":"3","startDate":"2020-09-17","startTime":"2020-09-17","lat":47.55839,"lon":7.57327},{"id":"1597960850373","title":"Kostenloser Zouk Workshop in Basel","imageName":"dancing-Zouk-in-basel-CH-on-2020-09-17.jpg","dances":"Zouk","countryCode":"CH","city":"basel","street":"Rheinländerstrasse 3","housenumber":"3","startDate":"2020-09-17","startTime":"2020-09-17","link":"DancePlanner","lat":47.55839,"lon":7.57327},{"id":"1597914230866","title":"Kostenloser Zouk Workshop in Basel","imageName":"Dancing-Zouk-in-Switzerland-Basel-on-2020-09-17-at-7:45pm-1597899600159.jpg","dances":"Zouk","countryCode":"CH","city":"Basel","street":"Rheinländerstrasse 3","housenumber":"3","startDate":"2020-09-17","startTime":"2020-09-17","lat":47.55839,"lon":7.57327},{"id":"1597960850373","title":"Kostenloser Zouk Workshop in Basel","imageName":"dancing-Zouk-in-basel-CH-on-2020-09-17.jpg","dances":"Zouk","countryCode":"CH","city":"basel","street":"Rheinländerstrasse 3","housenumber":"3","startDate":"2020-09-17","startTime":"2020-09-17","link":"DancePlanner","lat":47.55839,"lon":7.57327},{"id":"1597914230866","title":"Kostenloser Zouk Workshop in Basel","imageName":"Dancing-Zouk-in-Switzerland-Basel-on-2020-09-17-at-7:45pm-1597899600159.jpg","dances":"Zouk","countryCode":"CH","city":"Basel","street":"Rheinländerstrasse 3","housenumber":"3","startDate":"2020-09-17","startTime":"2020-09-17","lat":47.55839,"lon":7.57327},{"id":"1597960850373","title":"Kostenloser Zouk Workshop in Basel","imageName":"dancing-Zouk-in-basel-CH-on-2020-09-17.jpg","dances":"Zouk","countryCode":"CH","city":"basel","street":"Rheinländerstrasse 3","housenumber":"3","startDate":"2020-09-17","startTime":"2020-09-17","link":"DancePlanner","lat":47.55839,"lon":7.57327},{"id":"1597914230866","title":"Kostenloser Zouk Workshop in Basel","imageName":"Dancing-Zouk-in-Switzerland-Basel-on-2020-09-17-at-7:45pm-1597899600159.jpg","dances":"Zouk","countryCode":"CH","city":"Basel","street":"Rheinländerstrasse 3","housenumber":"3","startDate":"2020-09-17","startTime":"2020-09-17","lat":47.55839,"lon":7.57327},{"id":"1597960850373","title":"Kostenloser Zouk Workshop in Basel","imageName":"dancing-Zouk-in-basel-CH-on-2020-09-17.jpg","dances":"Zouk","countryCode":"CH","city":"basel","street":"Rheinländerstrasse 3","housenumber":"3","startDate":"2020-09-17","startTime":"2020-09-17","link":"DancePlanner","lat":47.55839,"lon":7.57327},{"id":"1597914230866","title":"Kostenloser Zouk Workshop in Basel","imageName":"Dancing-Zouk-in-Switzerland-Basel-on-2020-09-17-at-7:45pm-1597899600159.jpg","dances":"Zouk","countryCode":"CH","city":"Basel","street":"Rheinländerstrasse 3","housenumber":"3","startDate":"2020-09-17","startTime":"2020-09-17","lat":47.55839,"lon":7.57327},{"id":"1597914230866","title":"Kostenloser Zouk Workshop in Basel","imageName":"Dancing-Zouk-in-Switzerland-Basel-on-2020-09-17-at-7:45pm-1597899600159.jpg","dances":"Zouk","countryCode":"CH","city":"Basel","street":"Rheinländerstrasse 3","housenumber":"3","startDate":"2020-09-17","startTime":"2020-09-17","lat":47.55839,"lon":7.57327},{"id":"1597914230866","title":"Kostenloser Zouk Workshop in Basel","imageName":"Dancing-Zouk-in-Switzerland-Basel-on-2020-09-17-at-7:45pm-1597899600159.jpg","dances":"Zouk","countryCode":"CH","city":"Basel","street":"Rheinländerstrasse 3","housenumber":"3","startDate":"2020-09-17","startTime":"2020-09-17","lat":47.55839,"lon":7.57327},{"id":"1597914230866","title":"Kostenloser Zouk Workshop in Basel","imageName":"Dancing-Zouk-in-Switzerland-Basel-on-2020-09-17-at-7:45pm-1597899600159.jpg","dances":"Zouk","countryCode":"CH","city":"Basel","street":"Rheinländerstrasse 3","housenumber":"3","startDate":"2020-09-17","startTime":"2020-09-17","lat":47.55839,"lon":7.57327},{"id":"1597914230866","title":"Kostenloser Zouk Workshop in Basel","imageName":"Dancing-Zouk-in-Switzerland-Basel-on-2020-09-17-at-7:45pm-1597899600159.jpg","dances":"Zouk","countryCode":"CH","city":"Basel","street":"Rheinländerstrasse 3","housenumber":"3","startDate":"2020-09-17","startTime":"2020-09-17","lat":47.55839,"lon":7.57327},{"id":"1597914230866","title":"Kostenloser Zouk Workshop in Basel","imageName":"Dancing-Zouk-in-Switzerland-Basel-on-2020-09-17-at-7:45pm-1597899600159.jpg","dances":"Zouk","countryCode":"CH","city":"Basel","street":"Rheinländerstrasse 3","housenumber":"3","startDate":"2020-09-17","startTime":"2020-09-17","lat":47.55839,"lon":7.57327},{"id":"1597914230866","title":"Kostenloser Zouk Workshop in Basel","imageName":"Dancing-Zouk-in-Switzerland-Basel-on-2020-09-17-at-7:45pm-1597899600159.jpg","dances":"Zouk","countryCode":"CH","city":"Basel","street":"Rheinländerstrasse 3","housenumber":"3","startDate":"2020-09-17","startTime":"2020-09-17","lat":47.55839,"lon":7.57327},{"id":"1597914230866","title":"Kostenloser Zouk Workshop in Basel","imageName":"Dancing-Zouk-in-Switzerland-Basel-on-2020-09-17-at-7:45pm-1597899600159.jpg","dances":"Zouk","countryCode":"CH","city":"Basel","street":"Rheinländerstrasse 3","housenumber":"3","startDate":"2020-09-17","startTime":"2020-09-17","lat":47.55839,"lon":7.57327},{"id":"1597914230866","title":"Kostenloser Zouk Workshop in Basel","imageName":"Dancing-Zouk-in-Switzerland-Basel-on-2020-09-17-at-7:45pm-1597899600159.jpg","dances":"Zouk","countryCode":"CH","city":"Basel","street":"Rheinländerstrasse 3","housenumber":"3","startDate":"2020-09-17","startTime":"2020-09-17","lat":47.55839,"lon":7.57327},{"id":"1597914230866","title":"Kostenloser Zouk Workshop in Basel","imageName":"Dancing-Zouk-in-Switzerland-Basel-on-2020-09-17-at-7:45pm-1597899600159.jpg","dances":"Zouk","countryCode":"CH","city":"Basel","street":"Rheinländerstrasse 3","housenumber":"3","startDate":"2020-09-17","startTime":"2020-09-17","lat":47.55839,"lon":7.57327},{"id":"1597914230866","title":"Kostenloser Zouk Workshop in Basel","imageName":"Dancing-Zouk-in-Switzerland-Basel-on-2020-09-17-at-7:45pm-1597899600159.jpg","dances":"Zouk","countryCode":"CH","city":"Basel","street":"Rheinländerstrasse 3","housenumber":"3","startDate":"2020-09-17","startTime":"2020-09-17","lat":47.55839,"lon":7.57327},{"id":"1597914230866","title":"Kostenloser Zouk Workshop in Basel","imageName":"Dancing-Zouk-in-Switzerland-Basel-on-2020-09-17-at-7:45pm-1597899600159.jpg","dances":"Zouk","countryCode":"CH","city":"Basel","street":"Rheinländerstrasse 3","housenumber":"3","startDate":"2020-09-17","startTime":"2020-09-17","lat":47.55839,"lon":7.57327},{"id":"1597914230866","title":"Kostenloser Zouk Workshop in Basel","imageName":"Dancing-Zouk-in-Switzerland-Basel-on-2020-09-17-at-7:45pm-1597899600159.jpg","dances":"Zouk","countryCode":"CH","city":"Basel","street":"Rheinländerstrasse 3","housenumber":"3","startDate":"2020-09-17","startTime":"2020-09-17","lat":47.55839,"lon":7.57327},{"id":"1597914230866","title":"Kostenloser Zouk Workshop in Basel","imageName":"Dancing-Zouk-in-Switzerland-Basel-on-2020-09-17-at-7:45pm-1597899600159.jpg","dances":"Zouk","countryCode":"CH","city":"Basel","street":"Rheinländerstrasse 3","housenumber":"3","startDate":"2020-09-17","startTime":"2020-09-17","lat":47.55839,"lon":7.57327},{"id":"1597914230866","title":"Kostenloser Zouk Workshop in Basel","imageName":"Dancing-Zouk-in-Switzerland-Basel-on-2020-09-17-at-7:45pm-1597899600159.jpg","dances":"Zouk","countryCode":"CH","city":"Basel","street":"Rheinländerstrasse 3","housenumber":"3","startDate":"2020-09-17","startTime":"2020-09-17","lat":47.55839,"lon":7.57327},{"id":"1597914230866","title":"Kostenloser Zouk Workshop in Basel","imageName":"Dancing-Zouk-in-Switzerland-Basel-on-2020-09-17-at-7:45pm-1597899600159.jpg","dances":"Zouk","countryCode":"CH","city":"Basel","street":"Rheinländerstrasse 3","housenumber":"3","startDate":"2020-09-17","startTime":"2020-09-17","lat":47.55839,"lon":7.57327},{"id":"1597914230866","title":"Kostenloser Zouk Workshop in Basel","imageName":"Dancing-Zouk-in-Switzerland-Basel-on-2020-09-17-at-7:45pm-1597899600159.jpg","dances":"Zouk","countryCode":"CH","city":"Basel","street":"Rheinländerstrasse 3","housenumber":"3","startDate":"2020-09-17","startTime":"2020-09-17","lat":47.55839,"lon":7.57327},{"id":"1597914230866","title":"Kostenloser Zouk Workshop in Basel","imageName":"Dancing-Zouk-in-Switzerland-Basel-on-2020-09-17-at-7:45pm-1597899600159.jpg","dances":"Zouk","countryCode":"CH","city":"Basel","street":"Rheinländerstrasse 3","housenumber":"3","startDate":"2020-09-17","startTime":"2020-09-17","lat":47.55839,"lon":7.57327},{"id":"1597914230866","title":"Kostenloser Zouk Workshop in Basel","imageName":"Dancing-Zouk-in-Switzerland-Basel-on-2020-09-17-at-7:45pm-1597899600159.jpg","dances":"Zouk","countryCode":"CH","city":"Basel","street":"Rheinländerstrasse 3","housenumber":"3","startDate":"2020-09-17","startTime":"2020-09-17","lat":47.55839,"lon":7.57327},{"id":"1597914230866","title":"Kostenloser Zouk Workshop in Basel","imageName":"Dancing-Zouk-in-Switzerland-Basel-on-2020-09-17-at-7:45pm-1597899600159.jpg","dances":"Zouk","countryCode":"CH","city":"Basel","street":"Rheinländerstrasse 3","housenumber":"3","startDate":"2020-09-17","startTime":"2020-09-17","lat":47.55839,"lon":7.57327},{"id":"1597914230866","title":"Kostenloser Zouk Workshop in Basel","imageName":"Dancing-Zouk-in-Switzerland-Basel-on-2020-09-17-at-7:45pm-1597899600159.jpg","dances":"Zouk","countryCode":"CH","city":"Basel","street":"Rheinländerstrasse 3","housenumber":"3","startDate":"2020-09-17","startTime":"2020-09-17","lat":47.55839,"lon":7.57327},{"id":"1597914230866","title":"Kostenloser Zouk Workshop in Basel","imageName":"Dancing-Zouk-in-Switzerland-Basel-on-2020-09-17-at-7:45pm-1597899600159.jpg","dances":"Zouk","countryCode":"CH","city":"Basel","street":"Rheinländerstrasse 3","housenumber":"3","startDate":"2020-09-17","startTime":"2020-09-17","lat":47.55839,"lon":7.57327},{"id":"1597914230866","title":"Kostenloser Zouk Workshop in Basel","imageName":"Dancing-Zouk-in-Switzerland-Basel-on-2020-09-17-at-7:45pm-1597899600159.jpg","dances":"Zouk","countryCode":"CH","city":"Basel","street":"Rheinländerstrasse 3","housenumber":"3","startDate":"2020-09-17","startTime":"2020-09-17","lat":47.55839,"lon":7.57327},{"id":"1597914230866","title":"Kostenloser Zouk Workshop in Basel","imageName":"Dancing-Zouk-in-Switzerland-Basel-on-2020-09-17-at-7:45pm-1597899600159.jpg","dances":"Zouk","countryCode":"CH","city":"Basel","street":"Rheinländerstrasse 3","housenumber":"3","startDate":"2020-09-17","startTime":"2020-09-17","lat":47.55839,"lon":7.57327},{"id":"1597914230866","title":"Kostenloser Zouk Workshop in Basel","imageName":"Dancing-Zouk-in-Switzerland-Basel-on-2020-09-17-at-7:45pm-1597899600159.jpg","dances":"Zouk","countryCode":"CH","city":"Basel","street":"Rheinländerstrasse 3","housenumber":"3","startDate":"2020-09-17","startTime":"2020-09-17","lat":47.55839,"lon":7.57327},{"id":"1597914230866","title":"Kostenloser Zouk Workshop in Basel","imageName":"Dancing-Zouk-in-Switzerland-Basel-on-2020-09-17-at-7:45pm-1597899600159.jpg","dances":"Zouk","countryCode":"CH","city":"Basel","street":"Rheinländerstrasse 3","housenumber":"3","startDate":"2020-09-17","startTime":"2020-09-17","lat":47.55839,"lon":7.57327},{"id":"1597914230866","title":"Kostenloser Zouk Workshop in Basel","imageName":"Dancing-Zouk-in-Switzerland-Basel-on-2020-09-17-at-7:45pm-1597899600159.jpg","dances":"Zouk","countryCode":"CH","city":"Basel","street":"Rheinländerstrasse 3","housenumber":"3","startDate":"2020-09-17","startTime":"2020-09-17","lat":47.55839,"lon":7.57327},{"id":"1597914230866","title":"Kostenloser Zouk Workshop in Basel","imageName":"Dancing-Zouk-in-Switzerland-Basel-on-2020-09-17-at-7:45pm-1597899600159.jpg","dances":"Zouk","countryCode":"CH","city":"Basel","street":"Rheinländerstrasse 3","housenumber":"3","startDate":"2020-09-17","startTime":"2020-09-17","lat":47.55839,"lon":7.57327},{"id":"1597914230866","title":"Kostenloser Zouk Workshop in Basel","imageName":"Dancing-Zouk-in-Switzerland-Basel-on-2020-09-17-at-7:45pm-1597899600159.jpg","dances":"Zouk","countryCode":"CH","city":"Basel","street":"Rheinländerstrasse 3","housenumber":"3","startDate":"2020-09-17","startTime":"2020-09-17","lat":47.55839,"lon":7.57327},{"id":"1597914230866","title":"Kostenloser Zouk Workshop in Basel","imageName":"Dancing-Zouk-in-Switzerland-Basel-on-2020-09-17-at-7:45pm-1597899600159.jpg","dances":"Zouk","countryCode":"CH","city":"Basel","street":"Rheinländerstrasse 3","housenumber":"3","startDate":"2020-09-17","startTime":"2020-09-17","lat":47.55839,"lon":7.57327},{"id":"1597914230866","title":"Kostenloser Zouk Workshop in Basel","imageName":"Dancing-Zouk-in-Switzerland-Basel-on-2020-09-17-at-7:45pm-1597899600159.jpg","dances":"Zouk","countryCode":"CH","city":"Basel","street":"Rheinländerstrasse 3","housenumber":"3","startDate":"2020-09-17","startTime":"2020-09-17","lat":47.55839,"lon":7.57327},{"id":"1597914230866","title":"Kostenloser Zouk Workshop in Basel","imageName":"Dancing-Zouk-in-Switzerland-Basel-on-2020-09-17-at-7:45pm-1597899600159.jpg","dances":"Zouk","countryCode":"CH","city":"Basel","street":"Rheinländerstrasse 3","housenumber":"3","startDate":"2020-09-17","startTime":"2020-09-17","lat":47.55839,"lon":7.57327},{"id":"1597914230866","title":"Kostenloser Zouk Workshop in Basel","imageName":"Dancing-Zouk-in-Switzerland-Basel-on-2020-09-17-at-7:45pm-1597899600159.jpg","dances":"Zouk","countryCode":"CH","city":"Basel","street":"Rheinländerstrasse 3","housenumber":"3","startDate":"2020-09-17","startTime":"2020-09-17","lat":47.55839,"lon":7.57327},{"id":"1597914230866","title":"Kostenloser Zouk Workshop in Basel","imageName":"Dancing-Zouk-in-Switzerland-Basel-on-2020-09-17-at-7:45pm-1597899600159.jpg","dances":"Zouk","countryCode":"CH","city":"Basel","street":"Rheinländerstrasse 3","housenumber":"3","startDate":"2020-09-17","startTime":"2020-09-17","lat":47.55839,"lon":7.57327},{"id":"1597914230866","title":"Kostenloser Zouk Workshop in Basel","imageName":"Dancing-Zouk-in-Switzerland-Basel-on-2020-09-17-at-7:45pm-1597899600159.jpg","dances":"Zouk","countryCode":"CH","city":"Basel","street":"Rheinländerstrasse 3","housenumber":"3","startDate":"2020-09-17","startTime":"2020-09-17","lat":47.55839,"lon":7.57327},{"id":"1597914230866","title":"Kostenloser Zouk Workshop in Basel","imageName":"Dancing-Zouk-in-Switzerland-Basel-on-2020-09-17-at-7:45pm-1597899600159.jpg","dances":"Zouk","countryCode":"CH","city":"Basel","street":"Rheinländerstrasse 3","housenumber":"3","startDate":"2020-09-17","startTime":"2020-09-17","lat":47.55839,"lon":7.57327},{"id":"1597914230866","title":"Kostenloser Zouk Workshop in Basel","imageName":"Dancing-Zouk-in-Switzerland-Basel-on-2020-09-17-at-7:45pm-1597899600159.jpg","dances":"Zouk","countryCode":"CH","city":"Basel","street":"Rheinländerstrasse 3","housenumber":"3","startDate":"2020-09-17","startTime":"2020-09-17","lat":47.55839,"lon":7.57327},{"id":"1597914230866","title":"Kostenloser Zouk Workshop in Basel","imageName":"Dancing-Zouk-in-Switzerland-Basel-on-2020-09-17-at-7:45pm-1597899600159.jpg","dances":"Zouk","countryCode":"CH","city":"Basel","street":"Rheinländerstrasse 3","housenumber":"3","startDate":"2020-09-17","startTime":"2020-09-17","lat":47.55839,"lon":7.57327},{"id":"1597914230866","title":"Kostenloser Zouk Workshop in Basel","imageName":"Dancing-Zouk-in-Switzerland-Basel-on-2020-09-17-at-7:45pm-1597899600159.jpg","dances":"Zouk","countryCode":"CH","city":"Basel","street":"Rheinländerstrasse 3","housenumber":"3","startDate":"2020-09-17","startTime":"2020-09-17","lat":47.55839,"lon":7.57327},{"id":"1597914230866","title":"Kostenloser Zouk Workshop in Basel","imageName":"Dancing-Zouk-in-Switzerland-Basel-on-2020-09-17-at-7:45pm-1597899600159.jpg","dances":"Zouk","countryCode":"CH","city":"Basel","street":"Rheinländerstrasse 3","housenumber":"3","startDate":"2020-09-17","startTime":"2020-09-17","lat":47.55839,"lon":7.57327},{"id":"1597914230866","title":"Kostenloser Zouk Workshop in Basel","imageName":"Dancing-Zouk-in-Switzerland-Basel-on-2020-09-17-at-7:45pm-1597899600159.jpg","dances":"Zouk","countryCode":"CH","city":"Basel","street":"Rheinländerstrasse 3","housenumber":"3","startDate":"2020-09-17","startTime":"2020-09-17","lat":47.55839,"lon":7.57327},{"id":"1597914230866","title":"Kostenloser Zouk Workshop in Basel","imageName":"Dancing-Zouk-in-Switzerland-Basel-on-2020-09-17-at-7:45pm-1597899600159.jpg","dances":"Zouk","countryCode":"CH","city":"Basel","street":"Rheinländerstrasse 3","housenumber":"3","startDate":"2020-09-17","startTime":"2020-09-17","lat":47.55839,"lon":7.57327},{"id":"1597914230866","title":"Kostenloser Zouk Workshop in Basel","imageName":"Dancing-Zouk-in-Switzerland-Basel-on-2020-09-17-at-7:45pm-1597899600159.jpg","dances":"Zouk","countryCode":"CH","city":"Basel","street":"Rheinländerstrasse 3","housenumber":"3","startDate":"2020-09-17","startTime":"2020-09-17","lat":47.55839,"lon":7.57327},{"id":"1597914230866","title":"Kostenloser Zouk Workshop in Basel","imageName":"Dancing-Zouk-in-Switzerland-Basel-on-2020-09-17-at-7:45pm-1597899600159.jpg","dances":"Zouk","countryCode":"CH","city":"Basel","street":"Rheinländerstrasse 3","housenumber":"3","startDate":"2020-09-17","startTime":"2020-09-17","lat":47.55839,"lon":7.57327},{"id":"1597914230866","title":"Kostenloser Zouk Workshop in Basel","imageName":"Dancing-Zouk-in-Switzerland-Basel-on-2020-09-17-at-7:45pm-1597899600159.jpg","dances":"Zouk","countryCode":"CH","city":"Basel","street":"Rheinländerstrasse 3","housenumber":"3","startDate":"2020-09-17","startTime":"2020-09-17","lat":47.55839,"lon":7.57327},{"id":"1597914230866","title":"Kostenloser Zouk Workshop in Basel","imageName":"Dancing-Zouk-in-Switzerland-Basel-on-2020-09-17-at-7:45pm-1597899600159.jpg","dances":"Zouk","countryCode":"CH","city":"Basel","street":"Rheinländerstrasse 3","housenumber":"3","startDate":"2020-09-17","startTime":"2020-09-17","lat":47.55839,"lon":7.57327},{"id":"1597914230866","title":"Kostenloser Zouk Workshop in Basel","imageName":"Dancing-Zouk-in-Switzerland-Basel-on-2020-09-17-at-7:45pm-1597899600159.jpg","dances":"Zouk","countryCode":"CH","city":"Basel","street":"Rheinländerstrasse 3","housenumber":"3","startDate":"2020-09-17","startTime":"2020-09-17","lat":47.55839,"lon":7.57327},{"id":"1597914230866","title":"Kostenloser Zouk Workshop in Basel","imageName":"Dancing-Zouk-in-Switzerland-Basel-on-2020-09-17-at-7:45pm-1597899600159.jpg","dances":"Zouk","countryCode":"CH","city":"Basel","street":"Rheinländerstrasse 3","housenumber":"3","startDate":"2020-09-17","startTime":"2020-09-17","lat":47.55839,"lon":7.57327},{"id":"1597914230866","title":"Kostenloser Zouk Workshop in Basel","imageName":"Dancing-Zouk-in-Switzerland-Basel-on-2020-09-17-at-7:45pm-1597899600159.jpg","dances":"Zouk","countryCode":"CH","city":"Basel","street":"Rheinländerstrasse 3","housenumber":"3","startDate":"2020-09-17","startTime":"2020-09-17","lat":47.55839,"lon":7.57327},{"id":"1597914230866","title":"Kostenloser Zouk Workshop in Basel","imageName":"Dancing-Zouk-in-Switzerland-Basel-on-2020-09-17-at-7:45pm-1597899600159.jpg","dances":"Zouk","countryCode":"CH","city":"Basel","street":"Rheinländerstrasse 3","housenumber":"3","startDate":"2020-09-17","startTime":"2020-09-17","lat":47.55839,"lon":7.57327},{"id":"1597914230866","title":"Kostenloser Zouk Workshop in Basel","imageName":"Dancing-Zouk-in-Switzerland-Basel-on-2020-09-17-at-7:45pm-1597899600159.jpg","dances":"Zouk","countryCode":"CH","city":"Basel","street":"Rheinländerstrasse 3","housenumber":"3","startDate":"2020-09-17","startTime":"2020-09-17","lat":47.55839,"lon":7.57327},{"id":"1597914230866","title":"Kostenloser Zouk Workshop in Basel","imageName":"Dancing-Zouk-in-Switzerland-Basel-on-2020-09-17-at-7:45pm-1597899600159.jpg","dances":"Zouk","countryCode":"CH","city":"Basel","street":"Rheinländerstrasse 3","housenumber":"3","startDate":"2020-09-17","startTime":"2020-09-17","lat":47.55839,"lon":7.57327},{"id":"1597914230866","title":"Kostenloser Zouk Workshop in Basel","imageName":"Dancing-Zouk-in-Switzerland-Basel-on-2020-09-17-at-7:45pm-1597899600159.jpg","dances":"Zouk","countryCode":"CH","city":"Basel","street":"Rheinländerstrasse 3","housenumber":"3","startDate":"2020-09-17","startTime":"2020-09-17","lat":47.55839,"lon":7.57327},{"id":"1597914230866","title":"Kostenloser Zouk Workshop in Basel","imageName":"Dancing-Zouk-in-Switzerland-Basel-on-2020-09-17-at-7:45pm-1597899600159.jpg","dances":"Zouk","countryCode":"CH","city":"Basel","street":"Rheinländerstrasse 3","housenumber":"3","startDate":"2020-09-17","startTime":"2020-09-17","lat":47.55839,"lon":7.57327},{"id":"1597914230866","title":"Kostenloser Zouk Workshop in Basel","imageName":"Dancing-Zouk-in-Switzerland-Basel-on-2020-09-17-at-7:45pm-1597899600159.jpg","dances":"Zouk","countryCode":"CH","city":"Basel","street":"Rheinländerstrasse 3","housenumber":"3","startDate":"2020-09-17","startTime":"2020-09-17","lat":47.55839,"lon":7.57327},{"id":"1597914230866","title":"Kostenloser Zouk Workshop in Basel","imageName":"Dancing-Zouk-in-Switzerland-Basel-on-2020-09-17-at-7:45pm-1597899600159.jpg","dances":"Zouk","countryCode":"CH","city":"Basel","street":"Rheinländerstrasse 3","housenumber":"3","startDate":"2020-09-17","startTime":"2020-09-17","lat":47.55839,"lon":7.57327},{"id":"1597914230866","title":"Kostenloser Zouk Workshop in Basel","imageName":"Dancing-Zouk-in-Switzerland-Basel-on-2020-09-17-at-7:45pm-1597899600159.jpg","dances":"Zouk","countryCode":"CH","city":"Basel","street":"Rheinländerstrasse 3","housenumber":"3","startDate":"2020-09-17","startTime":"2020-09-17","lat":47.55839,"lon":7.57327},{"id":"1597914230866","title":"Kostenloser Zouk Workshop in Basel","imageName":"Dancing-Zouk-in-Switzerland-Basel-on-2020-09-17-at-7:45pm-1597899600159.jpg","dances":"Zouk","countryCode":"CH","city":"Basel","street":"Rheinländerstrasse 3","housenumber":"3","startDate":"2020-09-17","startTime":"2020-09-17","lat":47.55839,"lon":7.57327},{"id":"1597914230866","title":"Kostenloser Zouk Workshop in Basel","imageName":"Dancing-Zouk-in-Switzerland-Basel-on-2020-09-17-at-7:45pm-1597899600159.jpg","dances":"Zouk","countryCode":"CH","city":"Basel","street":"Rheinländerstrasse 3","housenumber":"3","startDate":"2020-09-17","startTime":"2020-09-17","lat":47.55839,"lon":7.57327},{"id":"1597914230866","title":"Kostenloser Zouk Workshop in Basel","imageName":"Dancing-Zouk-in-Switzerland-Basel-on-2020-09-17-at-7:45pm-1597899600159.jpg","dances":"Zouk","countryCode":"CH","city":"Basel","street":"Rheinländerstrasse 3","housenumber":"3","startDate":"2020-09-17","startTime":"2020-09-17","lat":47.55839,"lon":7.57327},{"id":"1597914230866","title":"Kostenloser Zouk Workshop in Basel","imageName":"Dancing-Zouk-in-Switzerland-Basel-on-2020-09-17-at-7:45pm-1597899600159.jpg","dances":"Zouk","countryCode":"CH","city":"Basel","street":"Rheinländerstrasse 3","housenumber":"3","startDate":"2020-09-17","startTime":"2020-09-17","lat":47.55839,"lon":7.57327},{"id":"1597914230866","title":"Kostenloser Zouk Workshop in Basel","imageName":"Dancing-Zouk-in-Switzerland-Basel-on-2020-09-17-at-7:45pm-1597899600159.jpg","dances":"Zouk","countryCode":"CH","city":"Basel","street":"Rheinländerstrasse 3","housenumber":"3","startDate":"2020-09-17","startTime":"2020-09-17","lat":47.55839,"lon":7.57327},{"id":"1597914230866","title":"Kostenloser Zouk Workshop in Basel","imageName":"Dancing-Zouk-in-Switzerland-Basel-on-2020-09-17-at-7:45pm-1597899600159.jpg","dances":"Zouk","countryCode":"CH","city":"Basel","street":"Rheinländerstrasse 3","housenumber":"3","startDate":"2020-09-17","startTime":"2020-09-17","lat":47.55839,"lon":7.57327},{"id":"1597914230866","title":"Kostenloser Zouk Workshop in Basel","imageName":"Dancing-Zouk-in-Switzerland-Basel-on-2020-09-17-at-7:45pm-1597899600159.jpg","dances":"Zouk","countryCode":"CH","city":"Basel","street":"Rheinländerstrasse 3","housenumber":"3","startDate":"2020-09-17","startTime":"2020-09-17","lat":47.55839,"lon":7.57327},{"id":"1597914230866","title":"Kostenloser Zouk Workshop in Basel","imageName":"Dancing-Zouk-in-Switzerland-Basel-on-2020-09-17-at-7:45pm-1597899600159.jpg","dances":"Zouk","countryCode":"CH","city":"Basel","street":"Rheinländerstrasse 3","housenumber":"3","startDate":"2020-09-17","startTime":"2020-09-17","lat":47.55839,"lon":7.57327},{"id":"1597914230866","title":"Kostenloser Zouk Workshop in Basel","imageName":"Dancing-Zouk-in-Switzerland-Basel-on-2020-09-17-at-7:45pm-1597899600159.jpg","dances":"Zouk","countryCode":"CH","city":"Basel","street":"Rheinländerstrasse 3","housenumber":"3","startDate":"2020-09-17","startTime":"2020-09-17","lat":47.55839,"lon":7.57327},{"id":"1597914230866","title":"Kostenloser Zouk Workshop in Basel","imageName":"Dancing-Zouk-in-Switzerland-Basel-on-2020-09-17-at-7:45pm-1597899600159.jpg","dances":"Zouk","countryCode":"CH","city":"Basel","street":"Rheinländerstrasse 3","housenumber":"3","startDate":"2020-09-17","startTime":"2020-09-17","lat":47.55839,"lon":7.57327},{"id":"1597914230866","title":"Kostenloser Zouk Workshop in Basel","imageName":"Dancing-Zouk-in-Switzerland-Basel-on-2020-09-17-at-7:45pm-1597899600159.jpg","dances":"Zouk","countryCode":"CH","city":"Basel","street":"Rheinländerstrasse 3","housenumber":"3","startDate":"2020-09-17","startTime":"2020-09-17","lat":47.55839,"lon":7.57327},{"id":"1597914230866","title":"Kostenloser Zouk Workshop in Basel","imageName":"Dancing-Zouk-in-Switzerland-Basel-on-2020-09-17-at-7:45pm-1597899600159.jpg","dances":"Zouk","countryCode":"CH","city":"Basel","street":"Rheinländerstrasse 3","housenumber":"3","startDate":"2020-09-17","startTime":"2020-09-17","lat":47.55839,"lon":7.57327},{"id":"1597914230866","title":"Kostenloser Zouk Workshop in Basel","imageName":"Dancing-Zouk-in-Switzerland-Basel-on-2020-09-17-at-7:45pm-1597899600159.jpg","dances":"Zouk","countryCode":"CH","city":"Basel","street":"Rheinländerstrasse 3","housenumber":"3","startDate":"2020-09-17","startTime":"2020-09-17","lat":47.55839,"lon":7.57327},{"id":"1597914230866","title":"Kostenloser Zouk Workshop in Basel","imageName":"Dancing-Zouk-in-Switzerland-Basel-on-2020-09-17-at-7:45pm-1597899600159.jpg","dances":"Zouk","countryCode":"CH","city":"Basel","street":"Rheinländerstrasse 3","housenumber":"3","startDate":"2020-09-17","startTime":"2020-09-17","lat":47.55839,"lon":7.57327},{"id":"1597914230866","title":"Kostenloser Zouk Workshop in Basel","imageName":"Dancing-Zouk-in-Switzerland-Basel-on-2020-09-17-at-7:45pm-1597899600159.jpg","dances":"Zouk","countryCode":"CH","city":"Basel","street":"Rheinländerstrasse 3","housenumber":"3","startDate":"2020-09-17","startTime":"2020-09-17","lat":47.55839,"lon":7.57327},{"id":"1597914230866","title":"Kostenloser Zouk Workshop in Basel","imageName":"Dancing-Zouk-in-Switzerland-Basel-on-2020-09-17-at-7:45pm-1597899600159.jpg","dances":"Zouk","countryCode":"CH","city":"Basel","street":"Rheinländerstrasse 3","housenumber":"3","startDate":"2020-09-17","startTime":"2020-09-17","lat":47.55839,"lon":7.57327},{"id":"1597914230866","title":"Kostenloser Zouk Workshop in Basel","imageName":"Dancing-Zouk-in-Switzerland-Basel-on-2020-09-17-at-7:45pm-1597899600159.jpg","dances":"Zouk","countryCode":"CH","city":"Basel","street":"Rheinländerstrasse 3","housenumber":"3","startDate":"2020-09-17","startTime":"2020-09-17","lat":47.55839,"lon":7.57327},{"id":"1597914230866","title":"Kostenloser Zouk Workshop in Basel","imageName":"Dancing-Zouk-in-Switzerland-Basel-on-2020-09-17-at-7:45pm-1597899600159.jpg","dances":"Zouk","countryCode":"CH","city":"Basel","street":"Rheinländerstrasse 3","housenumber":"3","startDate":"2020-09-17","startTime":"2020-09-17","lat":47.55839,"lon":7.57327},{"id":"1597914230866","title":"Kostenloser Zouk Workshop in Basel","imageName":"Dancing-Zouk-in-Switzerland-Basel-on-2020-09-17-at-7:45pm-1597899600159.jpg","dances":"Zouk","countryCode":"CH","city":"Basel","street":"Rheinländerstrasse 3","housenumber":"3","startDate":"2020-09-17","startTime":"2020-09-17","lat":47.55839,"lon":7.57327},{"id":"1597914230866","title":"Kostenloser Zouk Workshop in Basel","imageName":"Dancing-Zouk-in-Switzerland-Basel-on-2020-09-17-at-7:45pm-1597899600159.jpg","dances":"Zouk","countryCode":"CH","city":"Basel","street":"Rheinländerstrasse 3","housenumber":"3","startDate":"2020-09-17","startTime":"2020-09-17","lat":47.55839,"lon":7.57327},{"id":"1597914230866","title":"Kostenloser Zouk Workshop in Basel","imageName":"Dancing-Zouk-in-Switzerland-Basel-on-2020-09-17-at-7:45pm-1597899600159.jpg","dances":"Zouk","countryCode":"CH","city":"Basel","street":"Rheinländerstrasse 3","housenumber":"3","startDate":"2020-09-17","startTime":"2020-09-17","lat":47.55839,"lon":7.57327},{"id":"1597914230866","title":"Kostenloser Zouk Workshop in Basel","imageName":"Dancing-Zouk-in-Switzerland-Basel-on-2020-09-17-at-7:45pm-1597899600159.jpg","dances":"Zouk","countryCode":"CH","city":"Basel","street":"Rheinländerstrasse 3","housenumber":"3","startDate":"2020-09-17","startTime":"2020-09-17","lat":47.55839,"lon":7.57327},{"id":"1597914230866","title":"Kostenloser Zouk Workshop in Basel","imageName":"Dancing-Zouk-in-Switzerland-Basel-on-2020-09-17-at-7:45pm-1597899600159.jpg","dances":"Zouk","countryCode":"CH","city":"Basel","street":"Rheinländerstrasse 3","housenumber":"3","startDate":"2020-09-17","startTime":"2020-09-17","lat":47.55839,"lon":7.57327},{"id":"1597914230866","title":"Kostenloser Zouk Workshop in Basel","imageName":"Dancing-Zouk-in-Switzerland-Basel-on-2020-09-17-at-7:45pm-1597899600159.jpg","dances":"Zouk","countryCode":"CH","city":"Basel","street":"Rheinländerstrasse 3","housenumber":"3","startDate":"2020-09-17","startTime":"2020-09-17","lat":47.55839,"lon":7.57327},{"id":"1597914230866","title":"Kostenloser Zouk Workshop in Basel","imageName":"Dancing-Zouk-in-Switzerland-Basel-on-2020-09-17-at-7:45pm-1597899600159.jpg","dances":"Zouk","countryCode":"CH","city":"Basel","street":"Rheinländerstrasse 3","housenumber":"3","startDate":"2020-09-17","startTime":"2020-09-17","lat":47.55839,"lon":7.57327},{"id":"1597914230866","title":"Kostenloser Zouk Workshop in Basel","imageName":"Dancing-Zouk-in-Switzerland-Basel-on-2020-09-17-at-7:45pm-1597899600159.jpg","dances":"Zouk","countryCode":"CH","city":"Basel","street":"Rheinländerstrasse 3","housenumber":"3","startDate":"2020-09-17","startTime":"2020-09-17","lat":47.55839,"lon":7.57327},{"id":"1597914230866","title":"Kostenloser Zouk Workshop in Basel","imageName":"Dancing-Zouk-in-Switzerland-Basel-on-2020-09-17-at-7:45pm-1597899600159.jpg","dances":"Zouk","countryCode":"CH","city":"Basel","street":"Rheinländerstrasse 3","housenumber":"3","startDate":"2020-09-17","startTime":"2020-09-17","lat":47.55839,"lon":7.57327}]