[{"id":"1597842909378","title":"SALSA Im Park Cologne 2020","imageName":"Dancing-Salsa, Bachata-in-germany-Köln-on-2020-08-19-at-8pm-1597842895293.jpg","dances":"Salsa, Bachata","countryCode":"DE","city":"Köln","street":"n","housenumber":"n","startDate":"2020-08-19","startTime":"2020-08-19","link":"DancePlanner","lat":50.93333,"lon":6.95},{"id":"1597843574509","title":"SALSA Im Park Cologne 2020","imageName":"Dancing-Salsa-Bachata-in-germany-köln-on-2020-08-19-at-8pm-1597843561474.jpg","dances":"Salsa, Bachata","countryCode":"DE","city":"köln","street":"n","housenumber":"n","startDate":"2020-08-19","startTime":"2020-08-19","link":"DancePlanner","lat":50.93333,"lon":6.95},{"id":"1597843758745","title":"SALSA Im Park Cologne 2020","imageName":"Dancing-Salsa-Bachata-in-germany-köln-on-2020-08-19-at-8pm-1597843750381.jpg","dances":"Salsa, Bachata","countryCode":"DE","city":"köln","street":"n","housenumber":"n","startDate":"2020-08-19","startTime":"2020-08-19","link":"DancePlanner","lat":50.93333,"lon":6.95},{"id":"1597844439203","title":"SALSA Im Park Cologne 2020","imageName":"Dancing-Salsa-Bachata-in-germany-köln-on-2020-08-19-at-8-1597844411591.jpg","dances":"Salsa, Bachata","countryCode":"DE","city":"köln","street":"n","housenumber":"n","startDate":"2020-08-19","startTime":"2020-08-19","link":"DancePlanner","lat":50.93333,"lon":6.95},{"id":"1597914230866","title":"Kostenloser Zouk Workshop in Basel","imageName":"Dancing-Zouk-in-Switzerland-Basel-on-2020-09-17-at-7:45pm-1597899600159.jpg","dances":"Zouk","countryCode":"CH","city":"Basel","street":"Rheinländerstrasse 3","housenumber":"3","startDate":"2020-09-17","startTime":"2020-09-17","lat":47.55839,"lon":7.57327},{"id":"1597960850373","title":"Kostenloser Zouk Workshop in Basel","imageName":"dancing-Zouk-in-basel-CH-on-2020-09-17.jpg","dances":"Zouk","countryCode":"CH","city":"basel","street":"Rheinländerstrasse 3","housenumber":"3","startDate":"2020-09-17","startTime":"2020-09-17","link":"DancePlanner","lat":47.55839,"lon":7.57327},{"id":"1597961097039","title":"Kostenloser Zouk Workshop in Basel","imageName":"dancing-Zouk-in-basel-CH-on-2020-09-17.jpg","dances":"Zouk","countryCode":"CH","city":"basel","street":"Rheinländerstrasse 3","housenumber":"3","startDate":"2020-09-17","startTime":"2020-09-17","link":"DancePlanner","lat":47.55839,"lon":7.57327}]
